
 
 
  [

    {
      "name": "Fenkle Street",
      "address": "Fenkle Street Car Park, 2-8 Fenkle Street, Newcastle upon Tyne NE1 5XN",
      "postcode": "NE1 5XN",
      "district": "NE1",
      "capacity": 98,
      "location": [54.97095,-1.61876]
    },
    {
      "name": "The Gate",
      "address": "Stowell Street, Newcastle upon Tyne, NE1 4XQ",
      "postcode": "NE1 4XQ",
      "district": "NE1",
      "capacity": 276,
      "location": [54.97261,-1.62011]
    },
    {
      "name": "Q-Park",
      "address": "Stowell Street, Newcastle upon Tyne, NE1 4YB",
      "postcode": "NE1 4YB",
      "district": "NE1",
      "capacity": 266,
      "location": [54.97223,-1.62013]
    },
    {
      "name": "Quayside Multi-Storey",
      "address": "Quayside Multi-Storey, Newcastle upon Tyne, NE1 2HJ",
      "postcode": "NE1 2HJ",
      "district": "NE1",
      "capacity": 499,
      "location": [54.97101,-1.60527]
    },
    {
      "name": "St James' Park",
      "address": "St James' Park, Newcastle upon Tyne, NE1 4SE",
      "postcode": "NE1 4SE",
      "district": "NE1",
      "capacity": 545,
      "location": [54.97404,-1.62257]
    },
    {
      "name": "Oxford Street",
      "address": "Oxford Street, Newcastle upon Tyne, NE1 8QH",
      "postcode": "NE1 8QH",
      "district": "NE1",
      "capacity": 139,
      "location": [54.97850,-1.61058]
    },
    {
      "name": "NCP John Dobson St",
      "address": "John Dobson St, Newcastle upon Tyne, NE1 8HL",
      "postcode": "NE1 8HL",
      "district": "NE1",
      "capacity": 552,
      "location": [54.97654,-1.61139]
    },
    {
      "name": "NCP Carliol Sq",
      "address": "Carliol Sq, Newcastle upon Tyne, NE1 6UF",
      "postcode": "NE1 6UF",
      "district": "NE1",
      "capacity": 138,
      "location": [54.972946,-1.608363]
    },
    {
      "name": "NCP St John St",
      "address": "St John St, Newcastle upon Tyne, NE1 5JGF",
      "postcode": "NE1 5JGF",
      "district": "NE1",
      "capacity": 19,
      "location": [54.970943,-1.615128]
    }]
  